[{
        "title": "MILAN MXP, ITALY",
        "nom": "MILAN MXP, ITALY",
        "adresse": "Edograf Helpfly Malpensa Airport Terminal 1- 21010 Ferno (VA) ",
        "pays": "628",
        "ville": "1504",
        "phone": "+39 02 7486 2334,      mxp@edograf.com   ",
        "heure_ouverture": "",
        "latitude": "46.0327",
        "longitude": "8.7806"
    },
    {
        "title": "AIR ALGÉRIE PORT D'ALGER",
        "nom": "AIR ALGÉRIE PORT D'ALGER",
        "adresse": "Port d'Alger Rue d'Angkor, Alger Ctre 16000",
        "pays": "283",
        "ville": "186",
        "phone": "+213 21 98 63 63 Call Center ",
        "heure_ouverture": "",
        "latitude": "36.7735824",
        "longitude": "3.062092200000052"
    },
    {
        "title": "Aéroport de Francfort",
        "nom": "Aéroport de Francfort",
        "adresse": "Aéroport de Francfort, Terminal 2  Halle E Schalter 930.2",
        "pays": "286",
        "ville": "1477",
        "phone": "+49 69 690 31707-08, +33 1 76 54 40 00",
        "heure_ouverture": "",
        "latitude": "50.0379326",
        "longitude": "8.562151800000038"
    },
    {
        "title": "ROME FCO, ITALY",
        "nom": "ROME FCO, ITALY",
        "adresse": "Edograf Helpfly Fiumicino Airport Terminal 3 00050 Fiumicino (RM)",
        "pays": "628",
        "ville": "1505",
        "phone": "+39 06 6595 46441, +39 06 4381 022,   fco@edograf.com  ",
        "heure_ouverture": "",
        "latitude": "41.7998868",
        "longitude": "12.246238400000038"
    },
    {
        "title": "Aéroport de Toulouse",
        "nom": "Aéroport de Toulouse, AVIAPARTNER S.A.S",
        "adresse": "Aéroport de Toulouse, AVIAPARTNER S.A.S",
        "pays": "487",
        "ville": "1500",
        "phone": "+ 33 1 76 54 40 00 ",
        "heure_ouverture": "",
        "latitude": "43.6293863",
        "longitude": "1.367682000000059"
    },
    {
        "title": "Aéroport de BORDEAUX",
        "nom": "Aéroport de Bordeaux, AVIAPARTNER S.A.S",
        "adresse": "Aéroport de Bordeaux, AVIAPARTNER S.A.S",
        "pays": "487",
        "ville": "1492",
        "phone": "+ 33 1 76 54 40 00 ",
        "heure_ouverture": "",
        "latitude": "44.8305935",
        "longitude": "-0.7103051999999934"
    },
    {
        "title": "Palestine",
        "nom": "",
        "adresse": "",
        "pays": "",
        "ville": "",
        "phone": "",
        "heure_ouverture": "",
        "latitude": "31.952162 ",
        "longitude": "35.233154"
    },
    {
        "title": "Budapest",
        "nom": "Budapest ",
        "adresse": "Budapest, Erkel u. 13, 1092 Hongrie",
        "pays": "4945",
        "ville": "4947",
        "phone": " +33 1 76 54 40 00, +213 21 98 63 63",
        "heure_ouverture": "",
        "latitude": "47.4869732",
        "longitude": "19.0628863"
    },
    {
        "title": "Béjaïa",
        "nom": "Béjaïa ",
        "adresse": "08, Rue de la liberté Bejaia.     ",
        "pays": "283",
        "ville": "1446",
        "phone": "+213 21 98 63 63 Call Center ",
        "heure_ouverture": "",
        "latitude": "36.752106",
        "longitude": "5.070672"
    },
    {
        "title": "Aéroport PARIS CHARLES DE GAULLE",
        "nom": "Aéroport Paris CHARLES DE GAULLE ",
        "adresse": "Aéroport C.D.G terminal 2C",
        "pays": "487",
        "ville": "201",
        "phone": "+33 1 76 54 40 00, +213 21 98 63 63",
        "heure_ouverture": "",
        "latitude": "49.009691 ",
        "longitude": "2.547925"
    },
    {
        "title": "Aéroport PARIS ORLY",
        "nom": "Aéroport PARIS ORLY",
        "adresse": "Aéroport Paris Orly ",
        "pays": "487",
        "ville": "201",
        "phone": "+33 1 76 54 40 00, +213 21 98 63 63",
        "heure_ouverture": "",
        "latitude": "48.726243 ",
        "longitude": "2.365247"
    },
    {
        "title": "BERRIANE",
        "nom": "BERRIANE ",
        "adresse": "Air Algérie Berriane",
        "pays": "283",
        "ville": "1459",
        "phone": "+213 21 98 63 63 Call Center",
        "heure_ouverture": "",
        "latitude": "32.833767",
        "longitude": "3.77181"
    },
    {
        "title": "Riadh El Fath",
        "nom": "Riadh El Fath",
        "adresse": "Boulevard Khelifa Oulmane, Alger, Algérie",
        "pays": "283",
        "ville": "186",
        "phone": "+213 21 98 63 63 Call Center",
        "heure_ouverture": "",
        "latitude": "36.743021",
        "longitude": "3.070316"
    },
    {
        "title": "LAGHOUAT",
        "nom": "LAGHOUAT",
        "adresse": "Place khemisti galerie marchande",
        "pays": "283",
        "ville": "1473",
        "phone": "+213 21 98 63 63 Call center ",
        "heure_ouverture": "",
        "latitude": "33.806310",
        "longitude": "2.879806"
    },
    {
        "title": "BEYROUTH",
        "nom": "BEYROUTH",
        "adresse": "AIR ALGERIE CENTRE ARESCO PALACE RUE JUSTINIAN SANAYEH   BEYROUTH – LIBAN",
        "pays": "673",
        "ville": "1507",
        "phone": "+ 961 174 2920/30/40",
        "heure_ouverture": "",
        "latitude": "33.895429 ",
        "longitude": "35.491141"
    },
    {
        "title": "SETIF",
        "nom": "SETIF ",
        "adresse": "13, Avenue 08 Mai 1945",
        "pays": "283",
        "ville": "1454",
        "phone": "+213 21 98 63 63 Call Center",
        "heure_ouverture": "",
        "latitude": "36.189605",
        "longitude": "5.406784"
    },
    {
        "title": "GHARDAIA",
        "nom": "GHARDAIA",
        "adresse": "Rue talbiahmed Ghardaïa",
        "pays": "283",
        "ville": "1459",
        "phone": "+213 21 98 63 63 Call Center",
        "heure_ouverture": "",
        "latitude": "32.486382",
        "longitude": "3.677505"
    },
    {
        "title": "Aéroport ORAN",
        "nom": "Aéroport ORAN ",
        "adresse": "Aéroport national et international Ahmed Ben Bella ORAN",
        "pays": "283",
        "ville": "188",
        "phone": "+213 21 98 63 63 Call Center",
        "heure_ouverture": "",
        "latitude": "35.620289",
        "longitude": "-0.605928"
    },
    {
        "title": "ORAN",
        "nom": "ORAN ",
        "adresse": "02, Boulevard Emir Abdelkader",
        "pays": "283",
        "ville": "188",
        "phone": "+213 21 98 63 63 Call Center",
        "heure_ouverture": "",
        "latitude": "35.701654",
        "longitude": "-0.646671"
    },
    {
        "title": "MOSCOU",
        "nom": "MOSCOU",
        "adresse": "127550, Moscow, Dmitrovskoe shosse, 27 ParkTower Hotel, office. 1916",
        "pays": "856",
        "ville": "1516",
        "phone": "+7 (495) 909-24-59  - e-mail:airalgeriemoscow@mail.ru",
        "heure_ouverture": "",
        "latitude": "55.826205870850984",
        "longitude": "37.572003447359215"
    },
    {
        "title": "METLILI",
        "nom": "METLILI",
        "adresse": "Avenue  emir aek Metlili",
        "pays": "283",
        "ville": "1464",
        "phone": "+213 21 98 63 63 Call Center",
        "heure_ouverture": "",
        "latitude": "32.26631",
        "longitude": "3.629006"
    },
    {
        "title": "El Ménéa",
        "nom": "EL-GOLEA",
        "adresse": "Rue de la liberte El-Goléa",
        "pays": "283",
        "ville": "1464",
        "phone": "+213 21 98 63 63 Call Center",
        "heure_ouverture": "",
        "latitude": "30.59958869999999",
        "longitude": "2.8876436000000467"
    },
    {
        "title": "IN-AMENAS",
        "nom": "IN-AMENAS",
        "adresse": "Place 11 dec 1960 in-amenas",
        "pays": "283",
        "ville": "1462",
        "phone": "+213 21 98 63 63 Call Center",
        "heure_ouverture": "",
        "latitude": "28.047698",
        "longitude": "9.580121"
    },
    {
        "title": "HASSI-MESSAOUD",
        "nom": "HASSI-MESSAOUD",
        "adresse": "Centre ville Hassi-Messaoud",
        "pays": "283",
        "ville": "1461",
        "phone": "+213 21 98 63 63 Call Center",
        "heure_ouverture": "",
        "latitude": "30.416772",
        "longitude": "5.393955"
    },
    {
        "title": "EL-OUED",
        "nom": "EL-OUED",
        "adresse": "Cite 460  logts  el-oued",
        "pays": "283",
        "ville": "1458",
        "phone": "+213 21 98 63 63 Call Center",
        "heure_ouverture": "",
        "latitude": "33.359953",
        "longitude": "6.857705"
    },
    {
        "title": "TOUGGOURT",
        "nom": "TOUGGOURT",
        "adresse": "Place 1er novembre Touggourt",
        "pays": "283",
        "ville": "1466",
        "phone": "+213 21 98 63 63 Call Center ",
        "heure_ouverture": "",
        "latitude": "33.107396",
        "longitude": "6.069813"
    },
    {
        "title": "OUARGLA",
        "nom": "OUARGLA",
        "adresse": "Place souk esbt  Ouargla",
        "pays": "283",
        "ville": "1464",
        "phone": "+213 21 98 63 63 Call Center",
        "heure_ouverture": "",
        "latitude": "32.167781",
        "longitude": "4.976654"
    },
    {
        "title": "EL KHROUB",
        "nom": "EL KHROUB",
        "adresse": "Boulevard 79 Cite 1600 Logements",
        "pays": "283",
        "ville": "1453",
        "phone": "+ 213 21 98 63 63 Call Center ",
        "heure_ouverture": "",
        "latitude": "36.271441",
        "longitude": "6.685198"
    },
    {
        "title": "EL MILIA",
        "nom": "EL MILIA",
        "adresse": "Cité des 100 Logements Bt 1E1 N°2",
        "pays": "283",
        "ville": "1460",
        "phone": "+213 21 98 63 63 Call Center",
        "heure_ouverture": "",
        "latitude": "",
        "longitude": " "
    },
    {
        "title": "JIJEL",
        "nom": "JIJEL   ",
        "adresse": "Avenue Boubzari Mohamed",
        "pays": "283",
        "ville": "1460",
        "phone": "+213 21 98 63 63 Call Center ",
        "heure_ouverture": "",
        "latitude": "36.825012",
        "longitude": "5.765998"
    },
    {
        "title": "Aéroport de BATNA",
        "nom": "Aéroport BATNA",
        "adresse": "5,Avenue de la République",
        "pays": "283",
        "ville": "1450",
        "phone": "+213 21 98 63 63 Call Center ",
        "heure_ouverture": "",
        "latitude": "35.757286",
        "longitude": "6.309525"
    },
    {
        "title": "AIN BEIDA",
        "nom": "AIN BEIDA",
        "adresse": "7,Rue Abdelhamid Benbadis",
        "pays": "283",
        "ville": "1450",
        "phone": "+213 21 98 63 63 Call Center ",
        "heure_ouverture": "",
        "latitude": "35.798231",
        "longitude": "7.392291"
    },
    {
        "title": "BARIKA",
        "nom": "BARIKA",
        "adresse": "05, Avenue de la République",
        "pays": "283",
        "ville": "1450",
        "phone": "+213 21 98 63 63 Call Center",
        "heure_ouverture": "",
        "latitude": "35.3845934",
        "longitude": "5.289343"
    },
    {
        "title": "Aéroport JIJEL",
        "nom": "Aéroport JIJEL",
        "adresse": "Aéroport de Jijel - Ferhat Abbas ",
        "pays": "283",
        "ville": "1460",
        "phone": "+213 21 98 63 63 Call Center",
        "heure_ouverture": "",
        "latitude": "36.792794",
        "longitude": "5.878327"
    },
    {
        "title": "Aéroport BISKRA",
        "nom": "Aéroport BISKRA",
        "adresse": "Aéroport de Biskra Mohamed Khider",
        "pays": "283",
        "ville": "1452",
        "phone": "+213 21 98 63 63 Call Center",
        "heure_ouverture": "",
        "latitude": "34.791939 ",
        "longitude": "5.73358"
    },
    {
        "title": "Oum El Bouagui",
        "nom": "Oum El Bouagui",
        "adresse": "Cité Hihi Mekki",
        "pays": "283",
        "ville": "1453",
        "phone": "+213 98 63 63 Call Center ",
        "heure_ouverture": "",
        "latitude": "35.874992",
        "longitude": "7.122536"
    },
    {
        "title": "Chelghoum Laid",
        "nom": "Chelghoum Laid",
        "adresse": "Cité Bentchikou local N°06",
        "pays": "283",
        "ville": "1453",
        "phone": "+213 21 98 63 63 Call Center",
        "heure_ouverture": "",
        "latitude": "36.146477",
        "longitude": "6.195132"
    },
    {
        "title": "CONSTANTINE",
        "nom": "CONSTANTINE     ",
        "adresse": "38, Rue Abane Ramdane ",
        "pays": "283",
        "ville": "1453",
        "phone": "+213 21 98 63 63 Call Center",
        "heure_ouverture": "",
        "latitude": "36.360910",
        "longitude": "6.607115"
    },
    {
        "title": "KHENCHELA",
        "nom": "KHENCHELA",
        "adresse": "Rue Abbas Laghrour",
        "pays": "283",
        "ville": "1453",
        "phone": "+213 21 98 63 63 Call Center",
        "heure_ouverture": "",
        "latitude": "35.430515",
        "longitude": "7.148818"
    },
    {
        "title": "Aéroport CONSTANTINE",
        "nom": "Aéroport CONSTANTINE",
        "adresse": "Aéroport Mohamed Boudiaf",
        "pays": "283",
        "ville": "1453",
        "phone": "+213 21 98 63 63 Constantine",
        "heure_ouverture": "",
        "latitude": "36.283471 ",
        "longitude": "6.622142"
    },
    {
        "title": "BATNA",
        "nom": "BATNA",
        "adresse": "Rue des Frères Bouabsa ",
        "pays": "283",
        "ville": "1450",
        "phone": "+213 21 98 63 63 Call Center",
        "heure_ouverture": "",
        "latitude": "35.552435 ",
        "longitude": "6.179068"
    },
    {
        "title": "SKIKDA",
        "nom": "SKIKDA ",
        "adresse": "Complexe zone Skikda",
        "pays": "283",
        "ville": "1445",
        "phone": "+213 21 98 63 63 Call Center",
        "heure_ouverture": "",
        "latitude": "36.880384",
        "longitude": "6.907694"
    },
    {
        "title": "Biskra",
        "nom": "BISKRA  ",
        "adresse": "Rue Ghomri Mohamed",
        "pays": "283",
        "ville": "1452",
        "phone": "+213 21 98 63 63 Call Center",
        "heure_ouverture": "",
        "latitude": "34.853010",
        "longitude": "5.723155"
    },
    {
        "title": "SKIKDA ZONE",
        "nom": "SKIKDA ZONE",
        "adresse": "01 place douar moh Skikda",
        "pays": "283",
        "ville": "1445",
        "phone": "+213 21 98 63 63 Call Center",
        "heure_ouverture": "",
        "latitude": "",
        "longitude": ""
    },
    {
        "title": "Aéroport de SETIF",
        "nom": "Aéroport de SETIF ",
        "adresse": "13, Avenue 08 Mai 1945",
        "pays": "283",
        "ville": "1454",
        "phone": "+213 21 98 63 63 Call Center ",
        "heure_ouverture": "",
        "latitude": "36.176522",
        "longitude": "5.329983"
    },
    {
        "title": "TEBESSA",
        "nom": "TEBESSA",
        "adresse": "01 place 01 nov 1954 Tébessa",
        "pays": "283",
        "ville": "1465",
        "phone": "+213 21 98 63 63 Call Center ",
        "heure_ouverture": "",
        "latitude": "35.4275811",
        "longitude": "8.116542"
    },
    {
        "title": "GUELMA",
        "nom": "GUELMA",
        "adresse": "rue 01 nov 1954 Guelma",
        "pays": "283",
        "ville": "",
        "phone": "037203317",
        "heure_ouverture": "",
        "latitude": "",
        "longitude": ""
    },
    {
        "title": "Bordj Bouarreridj",
        "nom": "Bordj Bouarreridj",
        "adresse": "Avenu de la Révolution",
        "pays": "283",
        "ville": "1453",
        "phone": "+213 21 98 63 63 Call Center ",
        "heure_ouverture": "",
        "latitude": "36.072986",
        "longitude": "4.755390"
    },
    {
        "title": "M'SILA",
        "nom": "M'SILA",
        "adresse": "Centre Commercial M'SILA",
        "pays": "283",
        "ville": "1453",
        "phone": "+213 21 98 63 63 Call Center ",
        "heure_ouverture": "",
        "latitude": "35.704949 ",
        "longitude": "4.540660"
    },
    {
        "title": "EL EULMA",
        "nom": "EL EULMA  ",
        "adresse": "Place de la révolution",
        "pays": "283",
        "ville": "1453",
        "phone": "+213 21 98 63 63 Call Center ",
        "heure_ouverture": "",
        "latitude": "36.154241 ",
        "longitude": "5.692231"
    },
    {
        "title": "HADJAR ZONE",
        "nom": "HADJAR ZONE",
        "adresse": "",
        "pays": "283",
        "ville": "",
        "phone": "fermé",
        "heure_ouverture": "",
        "latitude": "",
        "longitude": ""
    },
    {
        "title": "IN SALAH",
        "nom": "Ain Salah",
        "adresse": "Centre ville Ain Salah",
        "pays": "283",
        "ville": "1463",
        "phone": "+213 21 98 63 63 Call Center",
        "heure_ouverture": "",
        "latitude": "27.200647",
        "longitude": "2.482254"
    },
    {
        "title": "SIDI BRAHIM",
        "nom": "SIDI BRAHIM",
        "adresse": "carrefour sidi brahim",
        "pays": "283",
        "ville": "1445",
        "phone": "038848340",
        "heure_ouverture": "",
        "latitude": "",
        "longitude": ""
    },
    {
        "title": "SELECT",
        "nom": "SELECT",
        "adresse": "cours de la révolution",
        "pays": "283",
        "ville": "",
        "phone": "038 867 120",
        "heure_ouverture": "",
        "latitude": "",
        "longitude": ""
    },
    {
        "title": "DJANET",
        "nom": "DJANET",
        "adresse": "Centre ville Djanet",
        "pays": "283",
        "ville": "1457",
        "phone": "+213 21 98 63 63 Call Center",
        "heure_ouverture": "",
        "latitude": "24.553182",
        "longitude": "9.484424"
    },
    {
        "title": "Aéroport de Annaba",
        "nom": "RABAH BITAT",
        "adresse": "Aéroprt rabah bitat",
        "pays": "283",
        "ville": "1445",
        "phone": "+213 21 98 63 63 Call Center",
        "heure_ouverture": "",
        "latitude": "36.824387",
        "longitude": "7.821759"
    },
    {
        "title": "1ER NOVEMBRE",
        "nom": "1ER NOVEMBRE",
        "adresse": "Place 1er Novembre",
        "pays": "283",
        "ville": "188",
        "phone": "+213 21 98 63 63 Call Center",
        "heure_ouverture": "",
        "latitude": "",
        "longitude": ""
    },
    {
        "title": "Tamanrasset",
        "nom": "Tamanrasset",
        "adresse": "Boulevard  Emir Abdelkader TAMENRASSET",
        "pays": "283",
        "ville": "1469",
        "phone": "+213 21 98 63 63 Call Center",
        "heure_ouverture": "",
        "latitude": "22.789169 ",
        "longitude": "5.524310"
    },
    {
        "title": "ORAN PANORAMIQUE",
        "nom": "PANORAMIQUE",
        "adresse": "15, Boulevard de l'ALN Oran",
        "pays": "283",
        "ville": "188",
        "phone": "+213 21 98 63 63 Call Center",
        "heure_ouverture": "",
        "latitude": "35.705657",
        "longitude": "-0.639729"
    },
    {
        "title": "MASCARA",
        "nom": "MASCARA ",
        "adresse": "Rue Emir Abdelkader",
        "pays": "283",
        "ville": "188",
        "phone": "+213 21 98 63 63 Call Center",
        "heure_ouverture": "",
        "latitude": "35.398396",
        "longitude": "0.133116"
    },
    {
        "title": "AIN TEMOUCHENT",
        "nom": "AIN TEMOUCHENT",
        "adresse": "23, Bvd 1er novembre 1954",
        "pays": "283",
        "ville": "188",
        "phone": "+213 21 98 63 63 Call Center",
        "heure_ouverture": "",
        "latitude": "35.291635",
        "longitude": "-1.140407"
    },
    {
        "title": "SAIDA",
        "nom": "SAIDA",
        "adresse": "01, Avenue de l’independence",
        "pays": "283",
        "ville": "188",
        "phone": "+213 21 98 63 63 Call Center",
        "heure_ouverture": "",
        "latitude": "34.831107",
        "longitude": "0.150834"
    },
    {
        "title": "Aéroport TLEMCEN",
        "nom": "Aéroport Tlemcen",
        "adresse": "Aéroport Tlemcen",
        "pays": "283",
        "ville": "1455",
        "phone": "+213 21 98 63 63 Call Center",
        "heure_ouverture": "",
        "latitude": "35.012189",
        "longitude": "-1.448167"
    },
    {
        "title": "TLEMCEN",
        "nom": "TLEMCEN ",
        "adresse": "Place Kairaouane",
        "pays": "283",
        "ville": "1455",
        "phone": "+213 21 98 63 63 Call Center",
        "heure_ouverture": "",
        "latitude": "34.884314 ",
        "longitude": "-1.312804"
    },
    {
        "title": "SIDIBELABBAS",
        "nom": "SIDI BEL ABBAS",
        "adresse": "08, Rue Lalout Belabbas Sidi Bel Abbas",
        "pays": "283",
        "ville": "188",
        "phone": "+213 21 98 63 63 Call Center",
        "heure_ouverture": "",
        "latitude": "35.191906",
        "longitude": "-0.632962"
    },
    {
        "title": "MOSTAGHANEM",
        "nom": "MOSTAGHANEM",
        "adresse": "Rue Benaied bendehiba",
        "pays": "283",
        "ville": "188",
        "phone": "+213 21 98 63 63 Call Center",
        "heure_ouverture": "",
        "latitude": "35.931991",
        "longitude": "0.090518"
    },
    {
        "title": "RELIZANE",
        "nom": "RELIZANE",
        "adresse": "Rue Benkhedda missoum",
        "pays": "283",
        "ville": "188",
        "phone": "+213 21 98 63 63 Call Center",
        "heure_ouverture": "",
        "latitude": "35.742908",
        "longitude": "0.554697"
    },
    {
        "title": "TIARET",
        "nom": "TIARET",
        "adresse": "Bvd Emir Abdelkader",
        "pays": "283",
        "ville": "1467",
        "phone": "+213 21 98 63 63 Call Center",
        "heure_ouverture": "",
        "latitude": "35.374421",
        "longitude": "1.314727"
    },
    {
        "title": "ARZEW",
        "nom": "ARZEW",
        "adresse": "01, Place med Khemisti, Arzew",
        "pays": "283",
        "ville": "188",
        "phone": "+213 21 98 63 63 Call Center",
        "heure_ouverture": "",
        "latitude": "",
        "longitude": ""
    },
    {
        "title": "TINDOUF",
        "nom": "TINDOUF",
        "adresse": "Gare Routière  TINDOUF",
        "pays": "283",
        "ville": "1468",
        "phone": "+213 21 98 63 63 Call Center",
        "heure_ouverture": "",
        "latitude": "27.667093",
        "longitude": "-8.145344"
    },
    {
        "title": "Aeroport Béchar",
        "nom": "Aéroport de Béchar",
        "adresse": "Aéroport  Colonel Lotfi Boudeghane",
        "pays": "283",
        "ville": "1456",
        "phone": "+213 21 98 63 63 Call Center",
        "heure_ouverture": "",
        "latitude": "31.651493",
        "longitude": "-2.252793"
    },
    {
        "title": "BECHAR",
        "nom": "BECHAR",
        "adresse": "Place de la république",
        "pays": "283",
        "ville": "1456",
        "phone": "+213 21 98 63 63 Call Center",
        "heure_ouverture": "",
        "latitude": "31.616698",
        "longitude": "-2.214038"
    },
    {
        "title": "Aéroport TIMIMOUN",
        "nom": "Aéroport TIMIMOUN",
        "adresse": "Aéroport  Timimoun",
        "pays": "283",
        "ville": "1470",
        "phone": "+213 21 98 63 63 Call Center",
        "heure_ouverture": "",
        "latitude": "29.244465",
        "longitude": "0.281522"
    },
    {
        "title": "Aéroport ADRAR",
        "nom": "Aéroport  ADRAR",
        "adresse": "Aéroport  Adrar",
        "pays": "283",
        "ville": "1475",
        "phone": "+213 21 98 63 63 Call Center",
        "heure_ouverture": "",
        "latitude": "27.842073",
        "longitude": "-0.188914"
    },
    {
        "title": "Bordj Badji Mokhtar",
        "nom": "Bordj Badji MOKHTAR",
        "adresse": "Grande place",
        "pays": "283",
        "ville": "1475",
        "phone": "+213 21 98 63 63 Call Center",
        "heure_ouverture": "",
        "latitude": "21.329413",
        "longitude": "0.951793"
    },
    {
        "title": "TIMIMOUN",
        "nom": "TIMIMOUN",
        "adresse": "Place de l’indépendance",
        "pays": "283",
        "ville": "1470",
        "phone": "+213 21 98 63 63 Call Center",
        "heure_ouverture": "",
        "latitude": "29.262478",
        "longitude": "0.229684"
    },
    {
        "title": "ADRAR",
        "nom": "ADRAR",
        "adresse": "Place des martyrs",
        "pays": "283",
        "ville": "1475",
        "phone": "+213 21 98 63 63 Call Center",
        "heure_ouverture": "",
        "latitude": "27.872500",
        "longitude": "-0.287071"
    },
    {
        "title": "Aéroport BEJAIA",
        "nom": "Aéroport BEJAIA",
        "adresse": "Aéroport de Bejaia",
        "pays": "283",
        "ville": "1446",
        "phone": "+213 21 98 63 63 Call Center",
        "heure_ouverture": "",
        "latitude": "36.715462",
        "longitude": "5.071213"
    },
    {
        "title": "DIDOUCHE 14",
        "nom": "DIDOUCHE 14",
        "adresse": "Rue de la liberté",
        "pays": "283",
        "ville": "186",
        "phone": "+213 21 98 63 63 Call Center",
        "heure_ouverture": "",
        "latitude": "",
        "longitude": ""
    },
    {
        "title": "AIR ALGERIE SHERATON",
        "nom": "SHERATON",
        "adresse": "Hôtel Sheraton Alger",
        "pays": "283",
        "ville": "186",
        "phone": "+213 21 98 63 63 Call Center",
        "heure_ouverture": "",
        "latitude": "36.763322",
        "longitude": "2.874392"
    },
    {
        "title": "Aéroport NATIONAL D'ALGER",
        "nom": "Aéroport NATIONAL",
        "adresse": "Dar el Beida Alger",
        "pays": "283",
        "ville": "186",
        "phone": "+213 21 98 63 63 Call Center",
        "heure_ouverture": "",
        "latitude": "36.700002",
        "longitude": "3.211969"
    },
    {
        "title": "Aéroport INTERNATIONAL D'ALGER",
        "nom": "Aéroport INTERNATIONAL",
        "adresse": "Dar el Beida Alger ",
        "pays": "283",
        "ville": "186",
        "phone": "+213 21 98 63 63 Call Center",
        "heure_ouverture": "",
        "latitude": "36.698582",
        "longitude": "3.207865"
    },
    {
        "title": "AUDIN",
        "nom": "AUDIN",
        "adresse": "01, Place AUDIN Alger",
        "pays": "283",
        "ville": "186",
        "phone": "+213 21 98 63 63 Call Center",
        "heure_ouverture": "",
        "latitude": "36.770267",
        "longitude": "3.054800"
    },
    {
        "title": "AIR ALGERIE AURASSI",
        "nom": "AURASSI ",
        "adresse": "1 Ave du Docteur Frantz Fanon, Alger Centre",
        "pays": "283",
        "ville": "186",
        "phone": "+213 21 98 63 63 Call Center",
        "heure_ouverture": "",
        "latitude": "36.776242",
        "longitude": "3.051471"
    },
    {
        "title": "AGENCE MDN",
        "nom": "AGENCE MDN",
        "adresse": "Hôtel aurassi",
        "pays": "283",
        "ville": "186",
        "phone": "21905397",
        "heure_ouverture": "",
        "latitude": "",
        "longitude": ""
    },
    {
        "title": "BOUFARIK",
        "nom": "BOUFARIK",
        "adresse": "Gare ferroviaire de Boufarik ",
        "pays": "283",
        "ville": "186",
        "phone": "+213 21 98 63 63 Call Center",
        "heure_ouverture": "",
        "latitude": "36.572077",
        "longitude": "2.910037"
    },
    {
        "title": "MEDEA",
        "nom": "MEDEA",
        "adresse": "Rue Si Smail et Zidane",
        "pays": "283",
        "ville": "186",
        "phone": "+213 21 98 63 63 Call Center",
        "heure_ouverture": "",
        "latitude": "36.264634",
        "longitude": "2.767613"
    },
    {
        "title": "DJELFA",
        "nom": "DJELFA",
        "adresse": "Avenue Colonel Bougasmi",
        "pays": "283",
        "ville": "186",
        "phone": "+213 21 98 63 63 Call Center",
        "heure_ouverture": "",
        "latitude": "34.676099",
        "longitude": "3.252121"
    },
    {
        "title": "BLIDA",
        "nom": "BLIDA",
        "adresse": "RUE BERZALI, BAB ELDZAIR Blida. ",
        "pays": "283",
        "ville": "186",
        "phone": "+213 21 98 63 63 Call Center",
        "heure_ouverture": "",
        "latitude": "36.473486",
        "longitude": "2.830213"
    },
    {
        "title": "CHLEF",
        "nom": "CHLEF",
        "adresse": "Rue des frères Ben Sallah",
        "pays": "283",
        "ville": "1451",
        "phone": "+213 21 98 63 63 Call Center",
        "heure_ouverture": "",
        "latitude": "36.167890",
        "longitude": "1.337070"
    },
    {
        "title": "ABANE RAMDANE",
        "nom": "ABANE RAMDANE",
        "adresse": "21 Rue AbaneRamdane Tizi-Ouzou.                                      10, Boulvard des Martyrs.",
        "pays": "283",
        "ville": "186",
        "phone": "026 203 513",
        "heure_ouverture": "",
        "latitude": "",
        "longitude": ""
    },
    {
        "title": "AZAZGA",
        "nom": "AZAZGA",
        "adresse": "RDC bibliothèque communale.",
        "pays": "283",
        "ville": "186",
        "phone": "+213 21 98 63 63 Call Center",
        "heure_ouverture": "",
        "latitude": "36.744693",
        "longitude": "4.364019"
    },
    {
        "title": "TIZI OUZOU",
        "nom": "TIZI OUZOU ",
        "adresse": "Cité 20 août Tizi Ouzou ",
        "pays": "283",
        "ville": "186",
        "phone": "+213 21 98 63 63 Call Center",
        "heure_ouverture": "",
        "latitude": "36.713748",
        "longitude": "4.044730"
    },
    {
        "title": "BOUIRA",
        "nom": "BOUIRA",
        "adresse": "Cité 56 Lgts Bt A Bouira",
        "pays": "283",
        "ville": "186",
        "phone": "+213 21 98 63 63 Call Center",
        "heure_ouverture": "",
        "latitude": "36.375499",
        "longitude": "3.888749"
    },
    {
        "title": "BOUMERDES",
        "nom": "BOUMERDES",
        "adresse": "Cité 800 Lgts Bt 06 Boumerdes",
        "pays": "283",
        "ville": "186",
        "phone": "+213 21 98 63 63 Call Center",
        "heure_ouverture": "",
        "latitude": "36.765337",
        "longitude": "3.460264"
    },
    {
        "title": "BELOUIZDAD",
        "nom": "BELOUIZDAD",
        "adresse": "10, Rue Mohamed Belouizdad",
        "pays": "283",
        "ville": "186",
        "phone": "+213 21 98 63 63 Call Center ",
        "heure_ouverture": "",
        "latitude": "",
        "longitude": ""
    },
    {
        "title": "TERMINAL Alger centre",
        "nom": "TERMINAL Alger centre",
        "adresse": " Rue Frères AMROUCHE, Alger Ctre, Algérie",
        "pays": "283",
        "ville": "186",
        "phone": "         +213 21 98 63 63 Call Center",
        "heure_ouverture": "",
        "latitude": "36.777546",
        "longitude": "3.059827"
    },
    {
        "title": "ALI KHOUDJA, EL BIAR",
        "nom": "ALI KHOUDJA EL BIAR",
        "adresse": "98, Rue Ali Khoudja El Biar",
        "pays": "283",
        "ville": "186",
        "phone": "+213 21 98 63 63 Call Center",
        "heure_ouverture": "",
        "latitude": "36.769529",
        "longitude": "3.028473"
    },
    {
        "title": "DIDOUCHE 39",
        "nom": "DIDOUCHE 39",
        "adresse": "39, Rue Didouche Mourad",
        "pays": "283",
        "ville": "186",
        "phone": "+213 21 98 63 63 Call Center",
        "heure_ouverture": "",
        "latitude": "36.767151",
        "longitude": "3.053304"
    },
    {
        "title": "PRÉPAID",
        "nom": "PRÉPAID",
        "adresse": "48, Rue Med 5",
        "pays": "283",
        "ville": "186",
        "phone": "+213 21 98 63 63 Call Center",
        "heure_ouverture": "",
        "latitude": "36.767885",
        "longitude": "3.052223"
    },
    {
        "title": "PASTEUR",
        "nom": "PASTEUR ",
        "adresse": "05, Avenue Pasteur",
        "pays": "283",
        "ville": "186",
        "phone": "+213 21 98 63 63 Call Center",
        "heure_ouverture": "",
        "latitude": "36.773608",
        "longitude": "3.058491"
    },
    {
        "title": "BAB EL OUED",
        "nom": "BAB EL OUED",
        "adresse": "06, Rue Ammar Benaissa",
        "pays": "283",
        "ville": "186",
        "phone": "021 978 778",
        "heure_ouverture": "",
        "latitude": "",
        "longitude": ""
    },
    {
        "title": "BOUGARA",
        "nom": "BOUGARA - El Biar  ",
        "adresse": "233, Avenue Bougara El Biar",
        "pays": "283",
        "ville": "186",
        "phone": "+213 21 98 63 63 Call Center",
        "heure_ouverture": "",
        "latitude": "36.768183",
        "longitude": "3.032566"
    },
    {
        "title": "ROUIBA",
        "nom": "ROUIBA ",
        "adresse": "Cité 63 Logts Rouiba",
        "pays": "283",
        "ville": "186",
        "phone": "+213 21 98 63 63 Call Center",
        "heure_ouverture": "",
        "latitude": "36.737706",
        "longitude": "3.291169"
    },
    {
        "title": "ALGER BORDJ EL KIFFAN",
        "nom": "ALGER BORDJ EL KIFFAN",
        "adresse": "09, Rue Colonel Bougara",
        "pays": "283",
        "ville": "186",
        "phone": "+213 98 63 63 Cal Center ",
        "heure_ouverture": "",
        "latitude": "",
        "longitude": ""
    },
    {
        "title": "EL HARRACH",
        "nom": "EL HARACH  ",
        "adresse": "01, Place de la République",
        "pays": "283",
        "ville": "186",
        "phone": "+213 21 98 63 63 Call Center",
        "heure_ouverture": "",
        "latitude": "36.720670",
        "longitude": "3.137981"
    },
    {
        "title": "CHÉRAGA",
        "nom": "CHÉRAGA",
        "adresse": "Place l’Emir Abdelkader",
        "pays": "283",
        "ville": "186",
        "phone": "+213 21 98 63 63 Call Center",
        "heure_ouverture": "",
        "latitude": "36.767730",
        "longitude": "2.957916"
    },
    {
        "title": "TOULOUSE",
        "nom": "TOULOUSE",
        "adresse": "9 Bis bd Strasbourg, 31000",
        "pays": "487",
        "ville": "1500",
        "phone": "+33 1 76 54 40 00, +213 21 98 63 63",
        "heure_ouverture": "",
        "latitude": "43.606458",
        "longitude": "1.447594"
    },
    {
        "title": "NICE",
        "nom": "NICE",
        "adresse": "APT Nice Cote D’Azur T2 Nice  06281. https://airalgerie.dz/horaires-ouverture-agence-nice/",
        "pays": "487",
        "ville": "1498",
        "phone": "+33 1 76 54 40 00, +213 21 98 63 63 ",
        "heure_ouverture": "",
        "latitude": "43.659562",
        "longitude": " 7.206151"
    },
    {
        "title": "LILLE",
        "nom": "LILLE",
        "adresse": "AEROPORT LILLE LESQUIN  59810",
        "pays": "487",
        "ville": "1494",
        "phone": "+33 1 76 54 40 00, +213 21 98 63 63",
        "heure_ouverture": "",
        "latitude": "50.571724",
        "longitude": "3.105669"
    },
    {
        "title": "METZ/Nancy",
        "nom": "METZ",
        "adresse": "05/07 Rue Pierre Perrat  57000",
        "pays": "487",
        "ville": "1493",
        "phone": "+33 1 76 54 40 00, +213 21 98 63 63",
        "heure_ouverture": "",
        "latitude": "49.110525",
        "longitude": "6.172983"
    },
    {
        "title": "LYON",
        "nom": "LYON",
        "adresse": "21.AVENUE DE SAXE 69006",
        "pays": "487",
        "ville": "1495",
        "phone": "+33 1 76 54 40 00, +213 21 98 63 63",
        "heure_ouverture": "",
        "latitude": "45.764889",
        "longitude": "4.841901"
    },
    {
        "title": "MARSEILLE",
        "nom": "MARSEILLE",
        "adresse": "17.BOULEVARD MAURICE BOURDET 13001",
        "pays": "487",
        "ville": "1497",
        "phone": "+33 1 76 54 40 00, +213 21 98 63 63",
        "heure_ouverture": "",
        "latitude": "43.302920",
        "longitude": "5.378933"
    },
    {
        "title": "PARIS",
        "nom": "PARIS",
        "adresse": "18.AVENUE DE L’OPERA 75001 ( fermé )",
        "pays": "487",
        "ville": "201",
        "phone": "+33 1 76 54 40 00, +213 21 98 63 63",
        "heure_ouverture": "",
        "latitude": "48.865605",
        "longitude": "2.334726"
    },
    {
        "title": "TUNIS",
        "nom": "TUNIS",
        "adresse": "26 AVE  DE  PARIS –TUNIS 1000",
        "pays": "994",
        "ville": "1519",
        "phone": "+33 1 76 54 40 00, +213 21 98 63 63",
        "heure_ouverture": "",
        "latitude": "36.803222",
        "longitude": "10.180779"
    },
    {
        "title": "DJEDDAH",
        "nom": "DJEDDAH",
        "adresse": "CITY CENTER MADINAH ROAD PO BOX 15178 JEDDAH 214444 K.S.A ",
        "pays": "304",
        "ville": "1478",
        "phone": "+33 1 76 54 40 00, +213 21 98 63 63",
        "heure_ouverture": "",
        "latitude": "21.537760",
        "longitude": "39.178395"
    },
    {
        "title": "NOUAKCHOTT",
        "nom": "NOUAKCHOTT",
        "adresse": "IMMEUBLE COMEQUIP ILOT N°6. AVENUE GAMEL ABDENASSER",
        "pays": "721",
        "ville": "1511",
        "phone": "+33 1 76 54 40 00, +213 21 98 63 63",
        "heure_ouverture": "",
        "latitude": "18.088139",
        "longitude": "-15.976878"
    },
    {
        "title": "DUBAI",
        "nom": "DUBAI",
        "adresse": "Clock Tower Round about   P.O.Box 15582/Deira Dubai  UAE",
        "pays": "3821",
        "ville": "1487",
        "phone": "+33 1 76 54 40 00, +213 21 98 63 63",
        "heure_ouverture": "",
        "latitude": "25.259477",
        "longitude": "55.326463"
    },
    {
        "title": "CASABLANCA",
        "nom": "CASABLANCA",
        "adresse": "Rues ALLAL Ben Abdellah et ELAMRAOUI Brahim",
        "pays": "712",
        "ville": "1510",
        "phone": "+33 1 76 54 40 00, +213 21 98 63 63",
        "heure_ouverture": "",
        "latitude": "33.595544",
        "longitude": "-7.614279"
    },
    {
        "title": "CAIRE",
        "nom": "CAIRE",
        "adresse": "13, RUE KASR EL NIL",
        "pays": "448",
        "ville": "1486",
        "phone": "+33 1 76 54 40 00, +213 21 98 63 63",
        "heure_ouverture": "",
        "latitude": "30.047227",
        "longitude": "31.237726"
    },
    {
        "title": "AMMAN",
        "nom": "AMMAN",
        "adresse": "PO BOX 182154 AMMAN 11118 JORDAN /UM UTHAINA BIN ABI WAQQAS ST BLDG N29 ",
        "pays": "640",
        "ville": "1506",
        "phone": "+33 1 76 54 40 00, +213 21 98 63 63",
        "heure_ouverture": "",
        "latitude": "31.966614",
        "longitude": "35.877695"
    },
    {
        "title": "LISBONNE",
        "nom": "LISBONNE",
        "adresse": "Av. Defensores de Chaves. 15 3°E 1000-196 Lisboa",
        "pays": "829",
        "ville": "1514",
        "phone": "+33 1 76 54 40 00, +213 21 98 63 63",
        "heure_ouverture": "",
        "latitude": "38.722252",
        "longitude": "-9.139337"
    },
    {
        "title": "VIENNE",
        "nom": "VIENNE",
        "adresse": "Hedwiggasse 4/1-4. 1020 Wien",
        "pays": "319",
        "ville": "1479",
        "phone": " +213 21 986 363/ +33 1 765 44 000, +41 215 309 483 ",
        "heure_ouverture": "",
        "latitude": "48.216327",
        "longitude": "16.391292"
    },
    {
        "title": "PALMA MALLORCA",
        "nom": "PALMA",
        "adresse": "AEROPUERTO DE PALMA. 07611 PALMA DE MALLORCA.",
        "pays": "463",
        "ville": "1491",
        "phone": " +33 1 76 54 40 00, +213 21 98 63 63",
        "heure_ouverture": "",
        "latitude": "39.546951",
        "longitude": "2.731638"
    },
    {
        "title": "ROME Ville",
        "nom": "ROME",
        "adresse": "VIA DELLE 4 FONTANE 177/178   00184 – ROMA (RM)",
        "pays": "628",
        "ville": "1505",
        "phone": "+ 39 648 6405, +39 648 84349",
        "heure_ouverture": "",
        "latitude": "41.901852",
        "longitude": "12.491064"
    },
    {
        "title": "MADRID",
        "nom": "MADRID",
        "adresse": "CALLE GRAN VIA , 67 / 4 MADRID",
        "pays": "463",
        "ville": "1490",
        "phone": " +33 1 76 54 40 00, +213 21 98 63 63",
        "heure_ouverture": "",
        "latitude": "40.422750",
        "longitude": "-3.710139"
    },
    {
        "title": "ISTANBUL",
        "nom": "ISTANBUL",
        "adresse": "CUMHURIYET CD N° 339 _1 HARBIYE _ ISTANBUL",
        "pays": "1000",
        "ville": "1520",
        "phone": " +33 1 76 54 40 00, +213 21 98 63 63",
        "heure_ouverture": "",
        "latitude": "41.048485",
        "longitude": " 28.987225"
    },
    {
        "title": "LONDRES",
        "nom": "LONDRES",
        "adresse": "04 PORTMAN SQUARE W1 H6LD LONDON",
        "pays": "853",
        "ville": "1515",
        "phone": " +33 1 76 54 40 00, +213 21 98 63 63",
        "heure_ouverture": "",
        "latitude": "51.515834",
        "longitude": "-0.154493"
    },
    {
        "title": "GENEVE",
        "nom": "GENEVE",
        "adresse": "12, RUE CHANTEPOULET –GENEVE 1201",
        "pays": "937",
        "ville": "1518",
        "phone": " +33 1 76 54 40 00, +213 21 98 63 63",
        "heure_ouverture": "",
        "latitude": "46.208479",
        "longitude": "6.143270"
    },
    {
        "title": "BRUXELLES",
        "nom": "BRUXELLES",
        "adresse": "101/103 BD  ADOLPHE MAX –1000 BRUXELLES",
        "pays": "337",
        "ville": "1480",
        "phone": " +33 1 76 54 40 00, +213 21 98 63 63",
        "heure_ouverture": "",
        "latitude": "50.854046",
        "longitude": "4.3559451"
    },
    {
        "title": "BARCELONE",
        "nom": "BARCELONE",
        "adresse": "C/VALENCIA 243-245- 08007",
        "pays": "463",
        "ville": "1489",
        "phone": " +33 1 76 54 40 00, +213 21 98 63 63",
        "heure_ouverture": "",
        "latitude": "41.3923084",
        "longitude": "2.16280430"
    },
    {
        "title": "ALICANTE",
        "nom": "ALICANTE ",
        "adresse": "AEROPORT ALICANTE 03071",
        "pays": "463",
        "ville": "1488",
        "phone": " +33 1 76 54 40 00, +213 21 98 63 63",
        "heure_ouverture": "",
        "latitude": "38.3579546",
        "longitude": "-0.5425652"
    },
    {
        "title": "PEKIN",
        "nom": "PEKIN",
        "adresse": "Air China  Plaza Xiaoyun rd 36 #1502 Chaoyang District  Beijing  CHINA",
        "pays": "397",
        "ville": "1484",
        "phone": "+33 1 76 54 40 00, +213 21 98 63 63",
        "heure_ouverture": "",
        "latitude": "39.9566163",
        "longitude": "116.4626396"
    },
    {
        "title": "MONTREAL",
        "nom": "MONTREAL",
        "adresse": "550, RUE SHERBROOK OUEST",
        "pays": "385",
        "ville": "1483",
        "phone": "+33 1 76 54 40 00, +213 21 98 63 63",
        "heure_ouverture": "",
        "latitude": "45.505733",
        "longitude": "-73.572186"
    },
    {
        "title": "BAMAKO",
        "nom": "BAMAKO",
        "adresse": "324 Avenue Modibo Kaita Bamako",
        "pays": "706",
        "ville": "1508",
        "phone": "+33 1 76 54 40 00, +213 21 98 63 63",
        "heure_ouverture": "",
        "latitude": "12.6427124",
        "longitude": "-8.0023913"
    },
    {
        "title": "ABIDJAN",
        "nom": "ABIDJAN",
        "adresse": "Avenue Nogues/Rue du Commerce",
        "pays": "424",
        "ville": "1485",
        "phone": "+33 1 76 54 40 00, +213 21 98 63 63",
        "heure_ouverture": "",
        "latitude": "5.3489657",
        "longitude": "-4.1199544"
    },
    {
        "title": "OUAGADOUGOU",
        "nom": "OUAGA DOUGOU",
        "adresse": "Avenue de la révolution-Rue, 6.12 Porte  913/01 BP 51",
        "pays": "373",
        "ville": "1482",
        "phone": "+33 1 76 54 40 00, +213 21 98 63 63",
        "heure_ouverture": "",
        "latitude": "12.3587916",
        "longitude": "-1.6769348"
    },
    {
        "title": "NIAMEY",
        "nom": "NIAMEY",
        "adresse": "343, Rue gamel Abdenasser. BP 10818   Niamey,Niger",
        "pays": "763",
        "ville": "1513",
        "phone": "+33 1 76 54 40 00, +213 21 98 63 63",
        "heure_ouverture": "",
        "latitude": "13.5130638",
        "longitude": "1.9789412"
    },
    {
        "title": "DAKAR",
        "nom": "DAKAR",
        "adresse": "2, Place de  l'independance BP 3277",
        "pays": "901",
        "ville": "1517",
        "phone": "+33 1 76 54 40 00, +213 21 98 63 63",
        "heure_ouverture": "",
        "latitude": "14.669709 ",
        "longitude": "-17.432011"
    },
    {
        "title": "Annaba",
        "nom": "Agence Annaba",
        "adresse": "Cours de la révolution",
        "pays": "283",
        "ville": "1445",
        "phone": "+213 21 98 63 63 Call Center",
        "heure_ouverture": "",
        "latitude": "36.901056",
        "longitude": " 7.759999"
    }
]